{  "name":"Languedoc Roussillon",  "cepages":"Mostly Syrah, Grenache & Carignan",  "review":"Excellent!",  "coordinates":[    3.823242,    43.715534  ], "wines":[    	{      "name":"Pic Saint-Loup"   },    	{      "name":"Saint Chinian"    },    {      "name":"Terrasses du Larzac"    }  ]}
{  "name":"Bordeaux",  "cepages":"Mostly Cabernet Sauvignon & Merlot", "review":"Also very good!",  "coordinates":[    -0.472412,    44.793530  ], 	"wines":[    	{      "name":"Saint Emilion"   },    {      "name":"Pomerol"    },    	{      "name":"Margaux"    }  ]}
{  "name":"Vallee du Rhone",  "cepages":"Mostly Syrah & Grenache", "review":"The best one!",  "coordinates":[    4.840679,    44.056628  ],	"wines":[    	{      "name":"Chateauneuf du Pape"   },    {      "name":"Cotes du Rhone"    },    {      "name":"Lirac"    }  ]}
{  "name":"Champagne",  "cepages":"Sparkling wine", "review":"Hum... some bubbles, so nice!",  "coordinates":[    4.290161,    49.063069  ], "wines":[    	{      "name":"Dom Perignon"   },    {      "name":"Veuve Clicquot"    },    {      "name":"Taittinger"    }  ]}
{  "name":"Beaujolais",  "cepages":"Mostly Gamay", "review":"Beaujolais Nouveau is a marketing trap... don't try it!",  "coordinates":[    4.570312,    46.004593  ], "wines":[    	{      "name":"Seriously..."   },    {      "name":"Don't try it!"    }  ]}